<?xml version="1.0" encoding="UTF-8" standalone="yes"?>
<top-15-countries-by-lat>
    <country>
        <name>Svalbard and Jan Mayen</name>
        <alpha2code>SJ</alpha2code>
        <alpha3code>SJM</alpha3code>
        <latitude>77.553604</latitude>
        <longitude>23.670272</longitude>
    </country>
    <country>
        <name>Greenland</name>
        <alpha2code>GL</alpha2code>
        <alpha3code>GRL</alpha3code>
        <latitude>71.706936</latitude>
        <longitude>-42.604303</longitude>
    </country>
    <country>
        <name>Iceland</name>
        <alpha2code>IS</alpha2code>
        <alpha3code>ISL</alpha3code>
        <latitude>64.963051</latitude>
        <longitude>-19.020835</longitude>
    </country>
    <country>
        <name>Finland</name>
        <alpha2code>FI</alpha2code>
        <alpha3code>FIN</alpha3code>
        <latitude>61.92411</latitude>
        <longitude>25.748151</longitude>
    </country>
    <country>
        <name>Faeroe Islands</name>
        <alpha2code>FO</alpha2code>
        <alpha3code>FRO</alpha3code>
        <latitude>61.892635</latitude>
        <longitude>-6.911806</longitude>
    </country>
    <country>
        <name>Russia</name>
        <alpha2code>RU</alpha2code>
        <alpha3code>RUS</alpha3code>
        <latitude>61.52401</latitude>
        <longitude>105.318756</longitude>
    </country>
    <country>
        <name>Norway</name>
        <alpha2code>NO</alpha2code>
        <alpha3code>NOR</alpha3code>
        <latitude>60.472024</latitude>
        <longitude>8.468946</longitude>
    </country>
    <country>
        <name>Ã…land Islands</name>
        <alpha2code>AX</alpha2code>
        <alpha3code>ALA</alpha3code>
        <latitude>60.1995487</latitude>
        <longitude>20.3711715</longitude>
    </country>
    <country>
        <name>Sweden</name>
        <alpha2code>SE</alpha2code>
        <alpha3code>SWE</alpha3code>
        <latitude>60.128161</latitude>
        <longitude>18.643501</longitude>
    </country>
    <country>
        <name>Estonia</name>
        <alpha2code>EE</alpha2code>
        <alpha3code>EST</alpha3code>
        <latitude>58.595272</latitude>
        <longitude>25.013607</longitude>
    </country>
    <country>
        <name>Latvia</name>
        <alpha2code>LV</alpha2code>
        <alpha3code>LVA</alpha3code>
        <latitude>56.879635</latitude>
        <longitude>24.603189</longitude>
    </country>
    <country>
        <name>Denmark</name>
        <alpha2code>DK</alpha2code>
        <alpha3code>DNK</alpha3code>
        <latitude>56.26392</latitude>
        <longitude>9.501785</longitude>
    </country>
    <country>
        <name>Canada</name>
        <alpha2code>CA</alpha2code>
        <alpha3code>CAN</alpha3code>
        <latitude>56.130366</latitude>
        <longitude>-106.346771</longitude>
    </country>
    <country>
        <name>UK</name>
        <alpha2code>GB</alpha2code>
        <alpha3code>GBR</alpha3code>
        <latitude>55.378051</latitude>
        <longitude>-3.435973</longitude>
    </country>
    <country>
        <name>Lithuania</name>
        <alpha2code>LT</alpha2code>
        <alpha3code>LTU</alpha3code>
        <latitude>55.169438</latitude>
        <longitude>23.881275</longitude>
    </country>
</top-15-countries-by-lat>
